,City Name,Latitude,Longitude,Temprature,Humidity,Cloudiness,Max Temp,Wind Speed
0,Puerto Ayora,-0.74,-90.35,79.72,69,20,82.4,10.29
1,Busselton,-33.65,115.33,70.23,32,1,73.0,15.23
2,Iona,26.52,-81.96,71.47,56,40,75.2,17.22
3,Tiksi,71.69,128.87,-16.83,88,29,-16.83,11.86
4,Rawson,-43.3,-65.1,75.92,41,54,75.92,21.0
5,Acajutla,13.59,-89.83,80.01,66,0,80.01,1.99
6,Mataura,-46.19,168.86,71.08,45,99,71.08,2.21
7,Buluang,13.31,123.34,77.22,84,0,77.22,3.31
8,Avarua,-21.21,-159.78,84.2,83,100,84.2,12.75
9,Norman Wells,65.28,-126.83,-9.4,83,5,-9.4,8.05
10,Castro,-24.79,-50.01,60.87,88,99,60.87,7.58
11,Omboue,-1.57,9.26,74.53,94,100,74.53,3.2
12,Kodiak,57.79,-152.41,33.8,69,90,33.8,26.4
13,Kapaa,22.08,-159.32,75.15,60,75,78.8,19.46
14,Punta Arenas,-53.15,-70.92,51.44,62,40,51.8,32.21
15,Baykit,61.67,96.37,11.48,94,100,11.48,6.13
16,Jamestown,42.1,-79.24,16.74,66,1,19.0,4.7
17,Mitzic,0.78,11.55,70.27,95,82,70.27,3.96
18,Mount Gambier,-37.83,140.77,69.8,56,90,69.8,9.17
19,Vaini,-21.2,-175.2,80.6,94,90,80.6,14.99
20,Port Elizabeth,-33.92,25.57,68.0,77,75,68.0,12.75
21,San Cristobal,7.77,-72.22,84.2,62,40,84.2,8.05
22,Sioux Lookout,50.1,-91.92,15.8,78,90,15.8,9.17
23,Lebrija,36.92,-6.08,51.93,100,90,54.0,3.67
24,Bluff,-46.6,168.33,69.24,49,100,69.24,3.8
25,Tasiilaq,65.61,-37.64,15.8,66,0,15.8,2.24
26,George Town,5.41,100.34,79.41,83,40,80.6,3.36
27,Bengkulu,-3.8,102.27,73.8,93,93,73.8,3.38
28,Khatanga,71.97,102.5,-6.74,98,100,-6.74,1.25
29,Albany,42.6,-73.97,10.04,43,20,15.01,11.41
30,Dikson,73.51,80.55,-10.14,99,100,-10.14,11.01
31,Saint-Pierre,-21.34,55.48,75.56,78,90,78.8,5.82
32,Halifax,44.65,-63.57,7.56,77,90,9.0,27.51
33,Cabo San Lucas,22.89,-109.91,76.91,34,5,80.6,9.17
34,Tromso,69.65,18.96,13.93,72,100,17.6,14.99
35,Provincia di Mantova,45.17,10.78,43.36,93,75,45.0,3.36
36,Gumia,23.78,85.82,59.81,77,0,59.81,6.53
37,Narsaq,60.92,-46.05,23.0,67,100,23.0,6.93
38,Thompson,55.74,-97.86,-5.8,70,90,-5.8,8.05
39,Atuona,-9.8,-139.03,82.0,72,85,82.0,18.45
40,Porto Velho,-8.76,-63.9,82.4,78,20,82.4,2.24
41,Logansport,40.75,-86.36,29.68,63,90,32.0,12.75
42,Rio Gallegos,-51.62,-69.22,57.2,44,40,57.2,33.33
43,Nhulunbuy,-12.23,136.77,91.4,63,40,91.4,10.29
44,Hobart,-42.88,147.33,60.42,41,75,66.99,6.93
45,Ushuaia,-54.8,-68.3,46.4,87,75,46.4,29.97
46,Agvali,42.54,46.12,12.02,46,20,12.02,3.49
47,Flin Flon,54.77,-101.86,-2.2,70,90,-2.2,3.36
48,Port Alfred,-33.59,26.89,66.99,96,97,66.99,17.63
49,San Patricio,19.22,-104.7,84.2,74,75,84.2,5.82
50,Port Hedland,-20.32,118.57,86.0,84,99,86.0,13.87
51,Carnarvon,-24.87,113.63,80.6,61,40,80.6,18.34
52,Qujing,25.48,103.78,39.11,91,0,39.11,9.84
53,Mecca,21.43,39.83,69.28,89,85,69.28,6.31
54,Rikitea,-23.12,-134.97,77.67,80,11,77.67,15.61
55,Honningsvag,70.98,25.97,26.53,71,4,26.53,20.74
56,Bolkhov,53.44,36.0,30.87,94,78,30.87,6.53
57,Arraial do Cabo,-22.97,-42.03,75.88,79,100,75.88,20.29
58,Saskylakh,71.92,114.08,-8.48,94,30,-8.48,12.08
59,Yulara,-25.24,130.99,91.4,17,0,91.4,17.22
60,Skjervoy,70.03,20.97,23.4,73,63,23.4,17.38
61,Baruun-Urt,46.68,113.28,-2.67,98,99,-2.67,7.9
62,Bethel,41.37,-73.41,18.77,28,1,26.01,9.17
63,Inhambane,-23.86,35.38,82.17,82,41,82.17,10.27
64,Aswan,24.09,32.91,55.4,62,3,55.4,24.16
65,Bredasdorp,-34.53,20.04,64.24,77,100,64.4,11.41
66,Zyryanka,65.75,150.85,-13.36,98,100,-13.36,3.15
67,Trinidad,-14.83,-64.9,84.2,79,90,84.2,2.37
68,New Norfolk,-42.78,147.06,60.48,41,75,66.99,6.93
69,Chirongui,-12.93,45.15,80.6,88,100,80.6,8.05
70,Ixtapa,20.7,-105.2,79.79,74,20,80.6,10.29
71,Kholodnyy,62.72,147.95,-18.04,95,99,-18.04,2.77
72,Bahia Blanca,-38.72,-62.27,77.11,14,0,77.11,11.14
73,Mongoumba,3.64,18.59,68.86,28,37,68.86,2.44
74,Souillac,-20.52,57.52,79.92,78,40,80.6,8.05
75,Forsytheganj,52.63,29.73,29.97,95,0,29.97,5.97
76,Alexandria,31.22,29.96,58.26,82,40,59.0,11.41
77,Cape Town,-33.93,18.42,66.52,77,20,68.0,28.86
78,Nikolskoye,59.7,30.79,38.73,80,90,39.2,6.71
79,Esperance,-33.87,121.9,66.2,68,75,66.2,21.92
80,Cairns,-16.92,145.77,91.35,52,0,93.99,12.75
81,Johnstown,40.33,-78.92,22.37,62,1,27.0,3.36
82,Torbay,47.67,-52.73,23.27,92,90,24.01,66.21
83,Mar del Plata,-38.0,-57.56,67.24,63,0,68.0,9.17
84,The Pas,53.83,-101.25,-2.2,77,90,-2.2,5.82
85,Chota,-6.55,-78.65,69.8,37,20,69.8,10.29
86,Hanzhong,33.07,107.03,34.97,78,94,34.97,0.81
87,Barrow,71.29,-156.79,-0.4,70,1,-0.4,9.17
88,Provideniya,64.38,-173.3,4.87,94,99,4.87,7.16
89,Hithadhoo,-0.6,73.08,82.22,78,90,82.22,15.82
90,El Real de Santa Maria,8.11,-77.73,76.89,89,75,76.89,1.45
91,Boguchany,58.38,97.45,17.38,91,100,17.38,11.12
92,Linkou,45.3,130.28,-2.9,93,11,-2.9,2.62
93,Saint-Philippe,-21.36,55.77,75.43,78,90,78.8,5.82
94,Coahuayana Viejo,18.73,-103.68,84.2,48,40,84.2,11.41
95,Zhezkazgan,47.8,67.71,14.92,93,93,14.92,8.5
96,Maltahohe,-24.83,16.98,70.32,52,54,70.32,5.97
97,Vardo,70.37,31.11,12.2,85,20,12.2,12.75
98,Chokurdakh,70.63,147.92,-26.32,95,67,-26.32,3.27
99,Ilebo,-4.32,20.58,70.59,97,99,70.59,2.06
100,Hoopstad,-27.83,25.91,78.4,36,100,78.4,17.56
101,Heihe,50.24,127.49,-11.2,76,99,-11.2,2.24
102,Wuwei,37.93,102.64,17.78,77,100,17.78,0.67
103,Omachi,36.5,137.87,36.0,69,75,42.8,13.87
104,Aylesbury,51.82,-0.81,35.71,93,59,37.99,3.36
105,Tuktoyaktuk,69.45,-133.04,-5.8,76,20,-5.8,13.87
106,Iqaluit,63.75,-68.51,-11.11,69,75,-11.0,8.05
107,Hilo,19.73,-155.09,69.01,78,90,75.2,14.99
108,Kiruna,67.86,20.23,14.0,92,100,14.0,2.77
109,Ukwa,21.97,80.47,60.33,82,88,60.33,2.17
110,Phan Thiet,10.93,108.1,70.54,81,0,70.54,2.33
111,Khabary,53.63,79.53,23.43,90,100,23.43,15.39
112,Lorengau,-2.02,147.27,84.63,75,7,84.63,27.04
113,Salalah,17.02,54.09,68.0,40,0,68.0,9.17
114,Qaanaaq,77.48,-69.36,-15.03,60,0,-15.03,7.29
115,Pizarro,4.95,-77.37,82.92,82,29,82.92,9.13
116,Three Hills,51.7,-113.27,-15.09,56,40,-11.99,3.36
117,Kavieng,-2.57,150.8,84.78,74,11,84.78,25.05
118,Aldama,22.92,-98.07,74.25,82,64,77.0,4.23
119,Abu Samrah,35.3,37.18,43.32,84,100,43.32,7.65
120,Vila Franca do Campo,37.72,-25.43,62.6,93,75,62.6,6.93
121,Nome,64.5,-165.41,8.6,60,1,8.6,12.75
122,La Rioja,42.25,-2.5,32.63,89,85,33.8,3.29
123,Kalmunai,7.42,81.82,81.07,79,60,81.07,12.35
124,Butaritari,3.07,172.79,84.09,79,98,84.09,16.71
125,Kirakira,-10.45,161.92,84.54,68,60,84.54,4.18
126,Hermanus,-34.42,19.23,64.9,86,100,66.0,10.0
127,East London,-33.02,27.91,75.27,86,95,75.27,19.62
128,Ribeira Grande,38.52,-28.7,58.51,90,92,58.51,4.21
129,Broken Hill,-31.95,141.43,71.6,33,31,71.6,10.29
130,Severo-Kuril'sk,50.68,156.12,17.38,86,99,17.38,15.99
131,Susuman,62.78,148.17,-16.96,98,100,-16.96,1.41
132,Rach Gia,10.02,105.08,73.4,100,0,73.4,1.12
133,Ust'-Omchug,61.15,149.63,-17.27,96,100,-17.27,4.27
134,Bodden Town,19.28,-81.25,78.75,78,20,79.0,21.92
135,Singarayakonda,15.25,80.03,73.87,86,3,73.87,7.56
136,Petropavlovsk-Kamchatsky,53.05,158.65,5.0,84,40,5.0,6.71
137,Grand-Bourg,15.88,-61.31,73.4,88,0,73.4,3.36
138,Jurm,36.86,70.83,5.67,43,0,5.67,11.48
139,Saint George,37.1,-113.58,49.06,17,1,51.8,16.11
140,Deputatsky,69.3,139.9,-28.34,98,25,-28.34,1.66
141,Qui Nhon,13.77,109.23,65.68,93,7,65.68,4.05
142,Hong Kong,22.29,114.16,60.24,59,20,62.01,4.7
143,Alofi,-19.06,-169.92,80.38,85,100,80.38,31.16
144,Half Moon Bay,37.46,-122.43,51.55,71,1,55.99,5.82
145,Auki,-8.77,160.7,82.81,73,100,82.81,7.34
146,Mersing,2.43,103.84,80.37,83,42,80.37,16.13
147,Little Current,45.98,-81.92,7.34,71,1,8.6,8.05
148,Mananara,-16.17,49.77,81.57,79,100,81.57,6.33
149,Aykhal,66.0,111.5,-0.4,91,100,-0.4,4.47
150,Lianyuan,27.69,111.66,36.21,90,89,36.21,2.77
151,Sitka,57.05,-135.33,21.81,45,20,24.8,17.22
152,Airai,-8.93,125.41,75.87,78,60,75.87,1.68
153,Faanui,-16.48,-151.75,82.38,79,29,82.38,20.54
154,Alyangula,-13.85,136.42,91.4,63,24,91.4,12.75
155,Alpena,45.06,-83.43,19.89,78,1,24.8,5.82
156,Pisco,-13.7,-76.22,70.45,83,74,71.6,21.92
157,Upington,-28.45,21.26,82.4,39,20,82.4,14.99
158,Asau,46.43,26.4,32.0,77,90,32.0,9.17
159,Playas,-2.63,-80.38,75.43,82,24,75.43,10.27
160,Nanortalik,60.14,-45.24,24.62,81,100,24.62,19.73
161,Lagoa,39.05,-27.98,61.66,86,44,61.66,8.23
162,High Level,58.52,-117.14,-16.6,68,90,-16.6,9.17
163,Havre-Saint-Pierre,50.23,-63.6,-2.2,49,1,-2.2,11.41
164,Grindavik,63.84,-22.43,29.44,62,75,32.0,13.87
165,Saldanha,-33.01,17.94,64.4,72,0,64.4,18.34
166,Seydi,39.48,62.91,29.57,68,0,29.57,7.99
167,Kimberley,-28.73,24.76,77.0,47,89,77.0,8.05
168,Lingyuan,41.24,119.4,13.03,71,0,13.03,3.04
169,Pacific Grove,36.62,-121.92,52.74,50,1,57.2,3.36
170,Nautla,20.22,-96.78,69.26,80,89,69.26,1.43
171,Lekoni,-1.58,14.26,76.73,75,100,76.73,6.02
172,Shediac,46.22,-64.54,-0.22,64,20,0.0,17.22
173,Port Macquarie,-31.43,152.92,73.87,88,90,75.99,6.93
174,Ust-Kuyga,70.02,135.6,-28.93,97,55,-28.93,8.68
175,Adrar,20.5,-10.07,60.71,20,2,60.71,13.51
176,Olafsvik,64.89,-23.71,33.24,67,32,33.24,16.08
177,Taixing,32.17,120.01,37.63,76,97,39.0,6.2
178,Tautira,-17.73,-149.15,87.44,58,75,87.8,20.8
179,Bela,25.93,81.98,54.34,95,0,54.34,1.79
180,Viedma,-40.81,-63.0,81.27,13,0,81.27,9.91
181,Lebu,-37.62,-73.65,66.29,62,0,66.29,6.51
182,Kondinskoye,59.65,67.41,2.01,89,37,2.01,9.71
183,Marigot,18.07,-63.08,77.65,78,20,79.0,8.05
184,Yellowknife,62.46,-114.35,-14.8,75,75,-14.8,4.7
185,Soubre,5.79,-6.61,74.86,87,42,74.86,3.13
186,Zacualpan,21.25,-105.17,79.41,39,40,80.6,9.17
187,Frutigen,46.59,7.65,37.98,100,20,41.0,3.36
188,Kahului,20.89,-156.47,74.73,73,40,77.0,13.87
189,Sobolevo,54.43,31.9,28.11,94,1,28.11,5.5
190,Payo,-3.75,103.64,69.48,95,100,69.48,2.06
191,Khovd,48.01,91.64,2.71,58,87,2.71,10.18
192,Waitati,-45.75,170.57,66.0,60,96,66.99,15.99
193,Pendleton,45.67,-118.79,32.54,64,90,37.99,5.82
194,Kununurra,-15.77,128.73,87.8,66,84,87.8,3.36
195,Cherskiy,68.75,161.3,-25.13,88,52,-25.13,2.1
196,Hamilton,39.18,-84.53,32.65,50,90,34.0,8.05
197,Aklavik,68.22,-135.01,-11.94,75,20,-0.4,4.7
198,Lata,40.16,-8.33,51.15,82,40,55.99,12.75
199,Upernavik,72.79,-56.15,-12.64,60,52,-12.64,2.33
200,Hambantota,6.12,81.12,78.51,85,100,78.51,16.73
201,Leningradskiy,69.38,178.42,-5.48,99,100,-5.48,9.06
202,Canico,32.63,-16.85,58.64,77,20,62.6,2.24
203,Sanand,22.98,72.38,51.8,76,0,51.8,5.82
204,Yola,9.2,12.48,69.75,29,30,69.75,2.15
205,Thunder Bay,48.4,-89.32,17.85,85,90,21.99,4.7
206,Saint-Augustin,51.23,-58.65,-1.7,67,0,-1.7,28.21
207,Mount Isa,-20.73,139.5,95.0,13,0,95.0,11.41
208,Pozo Colorado,-23.49,-58.8,78.58,77,98,78.58,3.67
209,Kruisfontein,-34.0,24.73,63.77,92,100,63.77,14.92
210,Cidreira,-30.18,-50.21,72.36,51,1,72.36,9.84
211,Mackenzie,55.3,-123.17,-7.6,63,1,-7.6,2.62
212,Rancho Palos Verdes,33.74,-118.39,57.65,51,75,63.0,10.29
213,Conil,44.97,3.72,29.21,95,57,29.21,4.07
214,Wattegama,6.8,81.48,71.82,96,97,71.82,2.46
215,Adre,13.47,22.2,60.35,31,57,60.35,16.62
216,Kota Belud,6.35,116.43,80.64,83,75,81.0,5.82
217,Zlotoryja,51.13,15.92,34.05,74,8,39.0,8.05
218,Balad,34.02,44.15,55.18,60,10,55.18,20.6
219,Avanuorri,71.0,24.66,21.2,67,0,21.2,17.22
220,Beloha,-25.17,45.05,69.87,97,10,69.87,5.08
221,Port Moresby,-9.44,147.18,89.6,70,40,89.6,11.41
222,Liwale,-9.77,37.93,71.42,99,100,71.42,4.16
223,Vanavara,60.34,102.28,10.96,93,100,10.96,9.4
224,Ampanihy,-24.7,44.75,70.72,92,5,70.72,5.97
225,Grass Valley,39.22,-121.06,43.25,86,1,50.0,2.35
226,Kiunga,-6.12,141.29,82.02,80,97,82.02,1.39
227,Ndele,8.41,20.65,71.47,23,11,71.47,4.83
228,Ahipara,-35.17,173.17,66.13,71,0,66.13,16.06
229,Matamoros,25.53,-103.25,69.91,53,90,71.6,6.93
230,Marabba,12.35,32.18,67.89,23,8,67.89,14.36
231,Baillif,16.02,-61.75,73.4,88,0,73.4,3.36
232,Mossamedes,-15.2,12.15,74.8,84,100,74.8,9.24
233,Porteirinha,-15.74,-43.03,75.87,69,1,75.87,4.76
234,Locri,38.24,16.26,56.07,50,75,57.0,3.36
235,Bathsheba,13.22,-59.52,78.8,78,75,78.8,12.75
236,Pokhara,28.23,83.98,45.7,71,1,45.7,4.03
237,Fortuna,40.6,-124.16,49.21,53,75,51.8,6.93
238,Helong,42.54,129.0,9.68,78,99,9.68,4.14
239,Praia da Vitoria,38.73,-27.07,57.2,93,40,57.2,14.05
240,Kisaran,2.98,99.62,72.72,94,14,72.72,2.55
241,Caravelas,-17.71,-39.25,79.86,83,0,79.86,13.4
242,Tezu,27.92,96.17,58.21,52,38,58.21,3.36
243,Ostrovnoy,68.05,39.51,13.1,88,100,13.1,7.16
244,Kurilsk,45.23,147.88,22.33,78,70,22.33,6.87
245,Brandfort,-28.7,26.46,71.6,60,99,71.6,2.24
246,Lake Havasu City,34.48,-114.32,59.67,23,1,62.6,13.87
247,Chui,-33.7,-53.46,61.83,62,0,61.83,8.41
248,Sirte,31.21,16.59,54.57,75,54,54.57,8.63
249,Usinsk,65.99,57.53,3.88,96,96,3.88,9.75
250,Senanga,-16.12,23.27,67.73,96,98,67.73,4.03
251,Arrondissement du Havre,49.58,0.33,39.87,87,46,42.8,16.11
252,Berdigestyakh,62.1,126.7,0.23,97,100,0.23,2.24
253,Taoudenni,22.68,-3.98,58.5,33,0,58.5,11.7
254,Ilinskiy,55.62,38.12,35.49,80,90,35.6,6.71
255,Nelson,-41.28,173.28,67.71,48,15,71.01,4.0
256,Shingu,33.73,135.98,46.4,61,75,46.4,10.29
257,Balagansk,54.01,103.05,-3.71,96,12,-3.71,6.04
258,Tres Arroyos,-38.37,-60.28,71.01,25,0,71.01,8.66
259,Ponta do Sol,32.67,-17.1,57.87,77,20,62.6,2.24
260,Wasilla,61.58,-149.44,9.46,31,1,15.8,13.87
261,Japura,-0.32,102.35,73.87,95,59,73.87,0.34
262,Pangnirtung,66.15,-65.71,-20.81,95,100,-20.81,1.3
263,Laas,46.62,10.7,26.8,79,90,34.0,3.36
264,Klaksvik,62.23,-6.59,41.0,80,100,41.0,25.28
265,Abrau-Dyurso,44.69,37.59,32.0,80,75,32.0,13.42
266,Urmary,55.68,47.94,35.6,93,75,35.6,11.18
267,Kropotkin,45.44,40.58,32.94,76,97,32.94,8.79
268,Dicabisagan,17.08,122.42,75.15,88,74,75.15,9.62
269,Tommot,58.96,126.29,5.92,96,100,5.92,4.81
270,Sur,22.57,59.53,63.01,56,25,63.01,8.93
271,Kitimat,54.05,-128.65,8.6,55,90,8.6,16.11
272,Troitskoye,52.98,84.68,22.24,90,100,22.24,23.38
273,Atherton,53.52,-2.49,38.73,100,48,42.01,5.82
274,Awjilah,29.11,21.29,57.69,61,94,57.69,11.32
275,Portland,45.52,-122.68,39.88,86,90,43.0,9.17
276,Oranjemund,-28.55,16.43,63.68,87,100,63.68,14.88
277,Verkhoyansk,67.54,133.38,-32.89,99,67,-32.89,1.59
278,Lodeynoye Pole,60.73,33.55,37.92,91,100,37.92,9.08
279,Arkhangelskaya,45.68,40.28,32.94,76,97,32.94,8.79
280,Udachny,66.42,112.4,-0.4,91,100,-0.4,4.47
281,Avera,33.19,-82.53,46.65,36,1,50.0,5.82
282,Wenchi,7.74,-2.1,77.0,31,0,77.0,2.84
283,Antofagasta,-23.65,-70.4,70.88,77,18,72.0,9.17
284,Matara,5.95,80.54,72.25,92,97,72.25,6.85
285,Visby,57.64,18.3,37.33,93,33,39.99,12.75
286,Chisinau,47.01,28.86,31.51,92,90,32.0,2.24
287,Kaitangata,-46.28,169.85,64.99,66,67,64.99,6.53
288,Galle,6.04,80.22,79.18,80,98,79.18,16.67
289,Dali,25.7,100.18,33.39,95,0,33.39,2.95
290,Ossora,59.24,163.07,3.58,72,0,3.58,3.94
291,Broome,42.25,-75.83,8.51,65,1,14.0,5.82
292,Tura,25.52,90.22,61.34,74,0,61.34,1.88
293,Ubari,26.59,12.78,47.55,59,0,47.55,5.01
294,Puerto Escondido,15.85,-97.07,84.2,74,20,84.2,1.23
295,Durban,-29.86,31.03,75.61,88,90,77.0,14.99
296,Kenscoff,18.45,-72.29,78.8,57,20,78.8,4.7
297,Neftcala,39.37,49.25,43.9,70,100,43.9,14.45
298,Gacko,43.17,18.54,26.38,86,3,26.6,2.24
299,Kumylzhenskaya,49.88,42.59,33.55,94,100,34.0,7.61
300,Genhe,50.78,121.52,-17.7,100,93,-17.7,1.86
301,Harper,4.38,-7.72,77.9,90,17,77.9,3.24
302,Ushibukamachi,32.19,130.02,52.72,57,76,52.72,21.12
303,Makubetsu,45.37,141.82,21.2,79,40,21.2,5.82
304,Nador,35.17,-2.93,50.16,54,82,57.2,3.36
305,Katsuura,35.13,140.3,37.92,93,75,39.2,18.34
306,Angoche,-16.23,39.91,76.68,94,100,76.68,3.83
307,Iberia,29.95,-91.75,68.7,77,90,69.8,10.29
308,Port Blair,11.67,92.75,73.4,94,20,73.4,2.24
309,Ugoofaaru,5.67,73.0,80.98,79,34,80.98,15.64
310,Bentiu,9.23,29.83,74.1,24,94,74.1,7.85
311,Kumul,42.8,93.45,8.65,44,4,8.65,1.63
312,Port Augusta,-32.5,137.77,70.86,68,40,73.99,12.75
313,Glendive,47.11,-104.71,1.94,77,90,3.0,14.99
314,Amuntai,-2.42,115.25,77.45,92,73,77.45,1.92
315,Mersa Matruh,31.35,27.25,59.63,67,17,59.63,14.27
316,Bardiyah,31.76,25.09,57.27,69,44,57.27,20.18
317,Sorland,67.67,12.69,38.28,81,100,38.28,14.0
318,Santiago del Estero,-27.8,-64.26,71.91,41,64,71.91,5.66
319,Salzwedel,52.85,11.15,45.19,87,75,46.99,13.87
320,Itacare,-14.28,-39.0,82.4,78,20,82.4,5.82
321,Ola,59.58,151.28,-5.55,73,100,-5.55,8.34
322,Lavrentiya,65.58,-171.0,1.45,93,92,1.45,4.32
323,Bony,47.65,17.87,29.34,92,90,32.0,6.93
324,Toropets,56.5,31.64,30.27,95,71,30.27,5.68
325,Woodstock,43.13,-80.75,16.74,72,90,19.0,11.41
326,Mitu,1.2,-70.17,74.5,94,78,74.5,1.16
327,Ouesso,1.61,16.05,74.62,68,76,74.62,2.26
328,Pundaguitan,6.37,126.17,78.24,77,44,78.24,1.92
329,Shelton,41.32,-73.09,18.99,29,1,25.0,8.05
330,Angoram,-4.06,144.07,86.0,68,60,86.0,4.88
331,Bandarbeyla,9.49,50.81,76.23,82,52,76.23,25.57
332,Longyearbyen,78.22,15.64,-4.0,83,40,-4.0,6.93
333,Beringovskiy,63.05,179.32,29.84,97,100,29.84,18.5
334,Darnah,32.77,22.64,58.48,62,91,58.48,15.26
335,Rome,43.21,-75.46,5.79,84,1,8.01,8.05
336,Poum,-20.23,164.02,79.2,78,0,79.2,17.36
337,Nakhon Thai,17.1,100.84,67.87,93,0,70.0,2.24
338,Porbandar,21.64,69.61,65.57,45,8,65.57,11.92
339,Glen Allen,37.67,-77.51,29.91,63,1,34.0,5.88
340,Mahebourg,-20.41,57.7,79.92,78,40,80.6,8.05
341,Metaxades,41.42,26.23,30.47,86,88,30.47,5.93
342,Gayeri,12.65,0.49,67.21,17,33,67.21,9.8
343,Bariloche,-41.15,-71.31,77.0,27,0,77.0,6.93
344,Itarema,-2.92,-39.92,77.77,87,88,77.77,3.58
345,Zhigansk,66.77,123.37,-17.79,94,100,-17.79,18.32
346,Tefe,-3.35,-64.71,77.59,86,74,77.59,1.92
347,Vao,-22.67,167.48,77.07,80,22,77.07,19.69
348,Jos,9.92,8.9,58.55,34,0,58.55,3.4
349,Ust'-Kan,50.93,84.76,9.77,82,100,9.77,22.79
350,College,64.86,-147.8,-8.84,75,1,1.4,0.34
351,Urubicha,-15.38,-62.95,81.93,62,54,81.93,2.3
352,Mapastepec,15.43,-92.9,79.2,60,0,79.2,1.7
353,Touros,-5.2,-35.46,75.2,94,75,75.2,2.24
354,Nioro,13.35,-15.75,74.95,9,0,74.95,9.15
355,Cabedelo,-6.98,-34.83,80.6,83,40,80.6,6.93
356,Safi,32.3,-9.24,52.23,54,0,52.23,8.9
357,Mpika,-11.83,31.45,61.45,96,100,61.45,5.68
358,Yerbogachen,61.28,108.01,5.79,92,98,5.79,10.92
359,Buala,-8.14,159.59,85.55,66,72,85.55,9.84
360,Aden,12.78,45.04,70.07,58,0,70.07,5.57
361,Havelock,34.88,-76.9,37.36,41,5,42.8,9.17
362,Kerema,-7.96,145.78,83.91,74,100,83.91,3.49
363,Tazovsky,67.47,78.7,-7.13,98,97,-7.13,9.64
364,Cubuk,40.24,33.03,24.44,85,0,27.0,8.05
365,Donna,26.17,-98.05,75.74,53,40,78.8,12.75
366,Rio Blanco,18.83,-97.15,58.96,97,67,58.96,1.05
367,Santa Rosa,14.31,121.11,80.55,78,40,81.0,3.36
368,Benton,36.33,-94.33,43.74,100,90,46.4,8.05
369,Lompoc,34.64,-120.46,55.36,66,1,57.99,13.87
370,Mikkeli,61.67,27.25,37.81,100,90,39.2,5.82
371,Tabou,4.42,-7.35,77.85,91,15,77.85,3.31
372,Allapalli,19.42,80.07,62.01,86,0,62.01,2.93
373,Palembang,-2.92,104.75,76.32,90,95,76.32,2.77
374,Farafangana,-22.82,47.83,79.03,85,49,79.03,7.58
375,Gorele,41.03,39.0,48.2,61,75,48.2,6.93
376,Dubbo,-32.25,148.62,78.8,50,40,78.8,18.34
377,Bilma,18.69,12.92,57.11,37,0,57.11,8.08
378,Abalak,58.13,68.59,-0.78,89,0,-0.78,5.06
379,Mthatha,-31.59,28.78,71.6,83,100,71.6,9.17
380,Hutang,31.53,119.48,39.63,93,90,42.01,2.24
381,Pangai,-19.8,-174.35,83.57,79,100,83.57,40.6
382,Daru,-9.08,143.21,88.27,63,6,88.27,8.08
383,San Jeronimo,-11.95,-75.28,42.84,76,65,42.84,5.86
384,Kokopo,-4.35,152.26,83.14,78,90,83.14,15.86
385,Coquimbo,-29.95,-71.34,68.04,77,50,75.99,10.29
386,Port Hardy,50.7,-127.42,33.8,80,90,33.8,28.86
387,Lagunas,-5.23,-75.68,79.57,77,59,79.57,3.04
388,Ponta Delgada,37.73,-25.67,62.6,93,75,62.6,6.93
389,Alta Floresta,-9.88,-56.09,76.68,80,49,76.68,1.45
390,Monterey,36.25,-121.25,52.74,54,1,55.4,4.7
391,Buin,-33.73,-70.75,79.52,36,40,80.6,3.36
392,Orel-Izumrud,43.46,39.92,35.6,74,27,35.6,2.75
393,Garoowe,8.41,48.48,68.43,73,1,68.43,16.33
394,Tessalit,20.2,1.01,60.13,26,30,60.13,10.94
395,Los Llanos de Aridane,28.66,-17.92,62.6,59,0,62.6,10.29
396,Fort Nelson,58.81,-122.7,-20.2,75,75,-20.2,2.24
397,Lima,-12.04,-77.03,71.6,83,40,71.6,14.99
398,Paraiso,9.84,-83.87,71.83,73,20,75.2,19.46
399,Sturgis,41.8,-85.42,25.7,73,90,26.6,11.41
400,Nemuro,43.32,145.57,21.2,67,20,21.2,2.24
401,Banamba,13.55,-7.45,65.82,18,13,65.82,10.07
402,San Borja,-14.82,-66.85,77.29,85,97,77.29,2.13
403,Sao Filipe,14.9,-24.5,70.3,72,16,70.3,14.03
404,San Pedro de Ycuamandiyu,-24.09,-57.08,83.05,63,70,83.05,2.44
405,Waipawa,-41.41,175.52,65.14,77,100,71.01,14.99
406,Tuatapere,-46.13,167.68,74.64,32,84,74.64,3.31
407,Mayo,38.89,-76.51,28.63,53,1,33.01,8.52
408,Provincie Utrecht,52.0,5.25,40.77,86,40,43.0,9.17
409,Barabai,-2.58,115.38,77.45,92,73,77.45,1.92
410,Carutapera,-1.2,-46.02,82.0,81,92,82.0,15.66
411,Dawson Creek,55.77,-120.24,-16.6,68,1,-16.6,2.24
412,Sorkjosen,69.8,20.93,23.4,73,63,23.4,17.38
413,Sistranda,63.73,8.83,41.0,80,100,41.0,12.75
414,Naze,28.37,129.48,59.85,58,75,60.8,10.29
415,Samarai,-10.62,150.67,88.45,56,1,88.45,6.11
416,Chumikan,54.72,135.31,-11.97,87,0,-11.97,4.61
417,Haimen,23.19,116.61,55.4,62,75,55.4,4.47
418,Port Lincoln,-34.73,135.87,63.7,60,84,63.7,11.25
419,'Ahuimanu,21.44,-157.84,75.22,73,90,78.8,20.8
420,Teguise,29.06,-13.56,62.6,51,0,62.6,8.05
421,Popondetta,-8.75,148.25,86.07,61,23,86.07,3.69
422,Sabha,27.04,14.43,49.08,68,0,49.08,8.55
423,Pavlohrad,48.52,35.87,30.2,86,0,30.2,8.95
424,Micheweni,-4.97,39.83,81.21,83,64,81.21,16.87
425,Bundibugyo,0.74,30.04,55.56,73,100,55.56,3.02
426,Gijang,35.24,129.21,35.6,93,75,35.6,11.41
427,Yushu,44.8,126.53,0.59,95,72,0.59,5.21
428,Aberdeen,57.14,-2.1,37.11,74,20,37.99,10.29
429,Hihya,30.67,31.59,54.32,76,5,55.4,9.17
430,Progreso,21.28,-89.67,80.8,65,20,81.0,11.41
431,Natal,-5.79,-35.21,76.1,94,75,77.0,5.82
432,Boulder City,35.98,-114.83,53.91,16,1,57.2,5.82
433,Diamantino,-14.41,-56.45,78.66,79,71,78.66,1.61
434,Nyagan,62.14,65.39,10.92,89,62,10.92,11.45
435,Nelson Bay,-32.72,152.15,71.85,94,90,73.0,5.82
436,Ilulissat,69.22,-51.1,1.4,54,92,1.4,16.11
437,Umm Lajj,25.02,37.27,57.97,67,24,57.97,9.8
438,Agadez,19.75,10.25,55.81,41,34,55.81,11.86
439,Carballo,43.21,-8.69,48.97,71,100,54.0,6.93
440,Nago,26.59,127.98,60.6,55,90,60.8,11.41
441,Platanos,37.67,21.62,37.81,69,0,44.6,14.18
442,Itambacuri,-18.03,-41.69,70.59,91,21,70.59,4.14
443,Ginir,7.13,40.7,56.98,29,52,56.98,4.14
444,Hervey Bay,-25.3,152.85,85.55,66,40,87.01,6.93
445,Porto Santo,33.07,-16.34,61.57,82,20,62.6,2.24
446,Mariental,-24.63,17.97,71.6,78,64,71.6,3.36
447,Mackay,-21.15,149.2,86.4,58,45,90.0,8.05
448,Sao Joao da Barra,-21.64,-41.05,75.88,92,91,75.88,21.79
449,Chichibu,35.99,139.08,37.54,74,75,44.01,10.29
450,Binzhou,37.37,118.02,32.0,77,0,32.0,1.01
451,Trzebiatow,54.06,15.26,33.57,93,90,35.6,5.82
452,Choya,52.01,86.55,22.51,72,100,22.51,12.37
453,Paamiut,61.99,-49.67,21.0,83,100,21.0,17.78
454,Karlskrona,56.16,15.59,41.0,93,16,41.0,8.05
455,Psebay,44.12,40.81,23.52,93,83,23.52,2.55
456,Sovetskaya,44.78,41.17,25.0,9,100,25.0,8.01
457,Mercedes,-34.65,-59.43,71.4,64,0,73.99,1.01
458,Carinhanha,-14.3,-43.77,77.9,66,30,77.9,3.2
459,Searcy,35.25,-91.74,41.74,100,90,44.01,3.36
460,Biltine,14.53,20.92,63.7,29,3,63.7,13.85
461,Karratha,-20.74,116.85,84.78,73,94,84.78,17.83
462,Minas,-34.38,-55.24,60.8,67,0,60.8,4.7
463,Curup,-3.47,102.53,67.48,97,98,67.48,3.58
464,Skagen,57.72,10.58,44.01,95,100,44.01,10.0
465,Bambanglipuro,-7.95,110.28,78.08,78,70,78.08,1.83
466,Ojinaga,29.57,-104.42,60.44,67,1,60.8,2.95
467,Codrington,-38.27,141.97,62.35,84,100,62.35,13.02
468,Karanpura,29.1,75.09,51.06,46,50,51.06,5.3
469,Kiryat Gat,31.61,34.76,53.51,87,40,55.4,5.82
470,Puerto Colombia,10.99,-74.95,78.8,78,46,78.8,18.34
471,Kalianget,-7.05,113.93,81.19,76,37,81.19,4.36
472,Merrill,45.18,-89.68,19.58,85,90,21.2,9.17
473,Banda Aceh,5.56,95.32,72.14,93,65,72.14,6.17
474,Oga,46.46,10.35,25.47,78,75,34.0,2.24
475,Xai-Xai,-25.05,33.64,75.72,88,1,75.72,3.8
476,Riyadh,24.69,46.72,55.4,43,0,55.4,6.93
477,Rosetta,31.4,30.42,61.23,76,47,61.23,19.6
478,Pilar,-9.6,-35.96,78.8,83,20,78.8,6.93
479,Zunyi,27.69,106.91,37.8,80,99,37.8,3.74
480,Santa Marta,11.24,-74.2,84.2,66,20,84.2,20.8
481,Saravan,39.72,45.65,28.4,79,90,28.4,11.41
482,Santa Maria,-29.68,-53.81,68.0,77,7,68.0,4.7
483,Flinders,-34.58,150.86,69.22,82,100,71.01,17.22
484,Burns Lake,54.23,-125.75,-13.07,96,96,-13.07,4.12
485,Laguna,38.42,-121.42,46.78,93,75,52.0,4.7
486,Severomuysk,56.15,113.43,-7.94,90,93,-7.94,2.04
487,Novobirilyussy,56.95,90.67,22.84,91,100,22.84,14.72
488,Topolobampo,25.6,-109.05,74.98,38,5,77.0,13.87
489,Clarence Town,-32.58,151.78,72.01,94,90,73.0,5.82
490,Biloela,-24.42,150.5,81.84,59,0,81.84,8.9
491,Veraval,20.9,70.37,55.26,55,0,55.26,10.67
492,Bambous Virieux,-20.34,57.76,79.9,78,40,80.6,8.05
493,Presidente Epitacio,-21.76,-52.12,76.5,86,71,76.5,14.14
494,Lakefield,43.68,-95.17,21.79,92,90,23.0,16.11
495,La Ronge,55.1,-105.28,-4.0,76,90,-4.0,3.36
496,Mahibadhoo,3.78,72.97,80.87,77,56,80.87,14.0
497,Manbij,36.53,37.95,39.2,86,75,39.2,2.24
498,Pyaozerskiy,65.83,31.17,13.03,92,100,13.03,4.34
499,Lobito,-12.35,13.55,78.57,79,78,78.57,3.27
500,Cayenne,4.93,-52.33,78.8,88,75,78.8,4.7
501,Coruripe,-10.13,-36.18,79.81,79,28,79.81,12.55
502,Alanya,36.54,32.0,48.2,100,75,48.2,4.7
503,Sakakah,29.97,40.21,46.4,56,1,46.4,5.66
504,Danielskuil,-28.19,23.54,68.49,43,90,68.49,20.58
505,Comodoro Rivadavia,-45.87,-67.5,82.4,17,34,82.4,17.22
506,Praia,14.92,-23.51,69.8,77,10,69.8,13.87
507,Te Anau,-45.42,167.72,61.97,60,86,61.97,2.75
508,Nouadhibou,20.93,-17.03,67.82,43,62,67.82,15.21
509,Arrondissement de Pontivy,48.0,-3.0,40.66,93,16,46.99,2.24
510,Ocampo,21.65,-101.5,63.18,47,65,63.18,2.04
511,Cooma,-36.23,149.13,59.0,77,90,59.0,6.93
512,Manoel Urbano,-8.84,-69.26,73.15,96,100,73.15,2.64
513,Severo-Yeniseyskiy,60.37,93.04,14.43,88,100,14.43,11.25
514,Fort Morgan,40.25,-103.8,38.19,30,1,44.6,17.22
515,Nushki,29.55,66.02,32.94,72,0,32.94,1.92
516,Morehead,37.27,-87.18,38.34,44,90,39.2,9.17
517,Wanlaweyn,2.62,44.89,72.19,73,7,72.19,13.82
518,Kaabong,3.48,34.15,71.69,36,39,71.69,5.14
519,Vanimo,-2.67,141.3,82.87,81,78,82.87,22.88
520,Pajapan,18.25,-94.7,75.2,88,90,75.2,5.82
521,Puerto Ayacucho,5.66,-67.62,86.0,70,75,86.0,9.17
522,Palmer,42.16,-72.33,14.38,36,20,19.4,6.93
523,Arrondissement de Sarreguemines,49.08,7.33,41.83,93,75,44.01,11.41
524,Antalaha,-14.9,50.28,83.12,73,100,83.12,1.66
525,Srednekolymsk,67.45,153.68,-18.85,96,92,-18.85,3.62
526,Muhos,64.75,26.17,32.0,98,90,32.0,8.05
527,Kamenka,51.32,42.77,33.53,97,100,34.0,5.01
528,Plover,44.46,-89.54,21.45,100,90,26.6,14.99
529,Sola,-13.88,167.55,87.8,52,75,87.8,8.05
530,Puerto Penasco,31.32,-113.53,64.0,69,6,64.0,3.0
531,Iisalmi,63.56,27.19,35.6,100,90,35.6,8.05
532,Constitucion,-35.33,-72.42,56.71,84,28,56.71,1.25
533,Tirumullaivasal,11.23,79.83,79.83,80,22,79.83,14.92
534,General Pico,-35.66,-63.76,72.97,28,32,72.97,9.89
535,Zarubino,42.63,131.09,20.88,69,93,20.88,10.36
536,Esim,4.87,-2.24,78.17,88,0,78.17,3.56
537,Road Town,18.42,-64.62,77.9,69,40,78.8,11.41
538,Sinnamary,5.38,-52.95,79.41,82,92,79.41,16.26
539,Gorgan,36.84,54.43,42.8,87,90,42.8,9.17
540,Sao Jose da Coroa Grande,-8.9,-35.15,81.07,77,58,81.07,11.7
541,Quatre Cocos,-20.21,57.76,79.83,78,40,80.6,8.05
542,Santiago,-33.46,-70.65,79.34,36,40,80.6,3.36
543,Yarada,17.65,83.27,68.0,100,20,68.0,2.24
544,Ambon,-3.7,128.18,87.8,66,40,87.8,8.05
545,Ukiah,39.15,-123.21,46.54,81,1,52.0,3.36
546,Ancud,-41.87,-73.82,68.0,68,0,68.0,9.17
547,Hasaki,35.73,140.83,38.73,93,75,39.2,18.34
548,Mahenge,-8.68,36.72,72.77,98,100,72.77,2.71
549,Amapa,1.0,-52.0,73.09,98,97,73.09,3.31
550,Maniitsoq,65.42,-52.9,13.89,46,96,13.89,6.31
551,Belaya Gora,68.53,146.42,-18.33,93,100,-18.33,2.33
552,Segovia,41.17,-4.0,39.92,76,89,44.01,5.21
553,Suluq,31.67,20.25,52.97,80,72,52.97,7.74
554,Manggar,-2.88,108.27,81.36,78,1,81.36,5.86
555,Raja,8.46,25.68,69.96,27,5,69.96,6.85
556,Yarovoy,52.93,78.58,24.96,92,99,24.96,14.07
557,Iracoubo,5.48,-53.2,79.43,83,96,79.43,15.82
558,Coyhaique,-45.58,-72.07,64.4,48,20,64.4,9.17
559,Arrondissement de Saint-Denis,48.92,2.33,39.36,75,20,41.0,3.36
560,Fairbanks,64.84,-147.72,-11.2,75,1,1.0,1.16
561,Nuevitas,21.55,-77.26,69.8,83,5,69.8,9.17
562,Neuquen,-38.95,-68.06,82.17,20,0,82.17,4.25
563,Lulea,65.58,22.15,17.6,92,90,17.6,5.82
564,Amahai,-3.33,128.92,82.83,76,86,82.83,10.25
565,Praia,14.92,-23.51,69.8,77,0,69.8,13.87
566,Zabid,14.2,43.32,69.71,55,0,69.71,1.95
567,Platteville,42.73,-90.48,23.83,100,90,26.6,21.92
568,Vila Velha,-20.33,-40.29,80.31,83,75,80.6,5.82
569,Manzhouli,49.6,117.43,-5.24,95,100,-5.24,1.61
570,Pontiac,42.64,-83.29,24.49,73,90,26.6,5.82
